[
    {
    "Airport_ID":8674,
    "Name":"Karlsruhe Hbf",
    "City":"Karlsruhe",
    "Country":"Germany",
    "IATA":"",
    "ICAO":"\\N",
    "Latitude":49.0135,
    "Longitude":8.4044,
    "Altitude":"377",
    "Timezone":1,
    "DST":"E"
  },
  {
    "Airport_ID":8675,
    "Name":"Lichtenwalde",
    "City":"Lichtenwalde",
    "Country":"Germany",
    "IATA":"",
    "ICAO":"\\N",
    "Latitude":50.8833,
    "Longitude":13.0167,
    "Altitude":"984",
    "Timezone":1,
    "DST":"E"
  },
  {
    "Airport_ID":8676,
    "Name":"Karlsruhe",
    "City":"Karlsruhe",
    "Country":"Germany",
    "IATA":"",
    "ICAO":"\\N",
    "Latitude":49.0135,
    "Longitude":8.4044,
    "Altitude":"377",
    "Timezone":1,
    "DST":"E"
  },
  {
    "Airport_ID":8677,
    "Name":"Holzhau",
    "City":"Holzhau",
    "Country":"Germany",
    "IATA":"",
    "ICAO":"\\N",
    "Latitude":50.7333334,
    "Longitude":13.6,
    "Altitude":"1969",
    "Timezone":1,
    "DST":"E"
  },
  {
    "Airport_ID":8678,
    "Name":"Porto",
    "City":"Porto",
    "Country":"Portugal",
    "IATA":"",
    "ICAO":"\\N",
    "Latitude":41.1667,
    "Longitude":8.5833,
    "Altitude":"341",
    "Timezone":0,
    "DST":"E"
  },
  {
    "Airport_ID":8679,
    "Name":"Lisboa-Oriente",
    "City":"Lisboa",
    "Country":"Portugal",
    "IATA":"",
    "ICAO":"\\N",
    "Latitude":38.424972,
    "Longitude":9.82179,
    "Altitude":"7",
    "Timezone":0,
    "DST":"E"
  },
  {
    "Airport_ID":8680,
    "Name":"Bad Herrenalb",
    "City":"Bad Herrenalb",
    "Country":"Germany",
    "IATA":"",
    "ICAO":"\\N",
    "Latitude":48.7976817,
    "Longitude":8.4361503,
    "Altitude":"1198",
    "Timezone":1,
    "DST":"E"
  },
  {
    "Airport_ID":8681,
    "Name":"St. Paul Downtown Airport - Holman Field",
    "City":"St. Paul",
    "Country":"United States",
    "IATA":"",
    "ICAO":"KSTP",
    "Latitude":44.9346225,
    "Longitude":-93.0603424,
    "Altitude":"705",
    "Timezone":-6,
    "DST":"A"
  },
  {
    "Airport_ID":8682,
    "Name":"Soderhamn Airport",
    "City":"Soderhamn",
    "Country":"Sweden",
    "IATA":"SOO",
    "ICAO":"ESCL",
    "Latitude":61.261667,
    "Longitude":17.098056,
    "Altitude":"94",
    "Timezone":1,
    "DST":"E"
  },
  {
    "Airport_ID":8683,
    "Name":"Newcastle Airfield",
    "City":"Newcastle",
    "Country":"Ireland",
    "IATA":"",
    "ICAO":"EINC",
    "Latitude":53.073056,
    "Longitude":-6.039722,
    "Altitude":"14",
    "Timezone":0,
    "DST":"E"
  },
  {
    "Airport_ID":8684,
    "Name":"Saravane Airport",
    "City":"Saravane",
    "Country":"Laos",
    "IATA":"VNA",
    "ICAO":"VLSV",
    "Latitude":15.709444,
    "Longitude":106.411667,
    "Altitude":"612",
    "Timezone":7,
    "DST":"U"
  },
  {
    "Airport_ID":8685,
    "Name":"Lisboa-Oriente",
    "City":"Lisboa",
    "Country":"Portugal",
    "IATA":"",
    "ICAO":"\\N",
    "Latitude":38.7,
    "Longitude":9.1833,
    "Altitude":"6",
    "Timezone":0,
    "DST":"E"
  }
]